City_ID,City,Lat,Lng,Max Temp,Humidity,Cloudiness,Wind Speed,Country,Date
0,kodiak,57.79,-152.4072,-396.4719999999999,100,100,0.0,US,1676058204
1,mahebourg,-20.4081,57.7,-314.068,69,40,9.22,MU,1676058205
2,hamilton,39.1834,-84.5333,-373.918,72,100,11.5,US,1676058158
3,mataura,-46.1927,168.8643,-361.606,70,18,2.1,NZ,1676058205
4,rikitea,-23.1203,-134.9692,-316.37199999999996,73,4,19.33,PF,1676058206
5,constitucion,-35.3333,-72.4167,-331.31199999999995,58,19,21.03,CL,1676058206
6,sioux lookout,50.1001,-91.917,-434.344,57,75,9.22,CA,1676058207
7,vallenar,-28.5708,-70.7581,-299.93799999999993,28,2,9.26,CL,1676058207
8,hilo,19.7297,-155.09,-326.578,87,75,4.0,US,1676058187
9,tucurui,-3.7661,-49.6725,-309.604,81,41,2.71,BR,1676058208
10,punta arenas,-53.15,-70.9167,-346.792,39,40,21.85,CL,1676058011
11,saint george,37.1041,-113.5841,-364.36,24,0,4.61,US,1676058209
12,wanning,18.8003,110.3967,-330.502,95,20,5.79,CN,1676058209
13,yulara,-25.2406,130.9889,-319.054,29,0,1.41,AU,1676058210
14,katangli,51.7102,143.2326,-497.00199999999995,94,7,6.04,RU,1676058186
15,vaini,-21.2,-175.2,-324.02199999999993,94,100,5.75,TO,1676058212
16,maromitsa,59.8683,48.0123,-421.186,90,100,13.04,RU,1676058212
17,atuona,-9.8,-139.0333,-317.794,77,6,16.78,PF,1676058213
18,zharkent,44.1628,80.0,-421.96,95,100,1.32,KZ,1676058213
19,puerto ayora,-0.7393,-90.3518,-308.18199999999996,85,89,8.01,EC,1676058214
20,hobart,-42.8794,147.3294,-347.24199999999996,92,75,5.75,AU,1676058009
21,carnarvon,-24.8667,113.6333,-323.57199999999995,69,7,22.01,AU,1676058103
22,upernavik,72.7868,-56.1549,-489.784,93,100,9.35,GL,1676058215
23,severo-kurilsk,50.6789,156.125,-419.72799999999995,76,100,31.21,RU,1676058215
24,bredasdorp,-34.5322,20.0403,-333.77799999999996,77,0,13.27,ZA,1676058216
25,torbay,47.6666,-52.7314,-419.368,78,75,10.36,CA,1676058216
26,lagoa,39.05,-27.9833,-357.448,71,0,5.97,PT,1676057918
27,mugumu,-1.85,34.7,-348.53799999999995,81,89,4.72,TZ,1676058217
28,jamestown,42.097,-79.2353,-394.852,92,100,14.97,US,1676058001
29,te anau,-45.4167,167.7167,-368.986,81,28,0.67,NZ,1676058203
30,kapaa,22.0752,-159.319,-323.734,83,100,16.11,US,1676058144
31,albany,42.6001,-73.9662,-374.97999999999996,66,96,5.99,US,1676058011
32,cape town,-33.9258,18.4232,-315.81399999999996,57,0,13.8,ZA,1676058097
33,khuzdar,27.7384,66.6434,-364.64799999999997,30,54,6.78,PK,1676058219
34,bjerkvik,68.5597,17.5189,-411.07,93,100,3.0,NO,1676058219
35,mastic beach,40.7668,-72.8521,-349.78,35,0,21.85,US,1676058220
36,beyla,8.6833,-8.6333,-306.652,32,33,4.54,GN,1676058220
37,hermanus,-34.4187,19.2345,-330.42999999999995,68,0,10.0,ZA,1676058220
38,ketchikan,55.3422,-131.6461,-388.26399999999995,93,100,10.36,US,1676058221
39,ginir,7.1333,40.7,-346.054,31,23,3.71,ET,1676058221
40,norman wells,65.282,-126.8329,-466.79799999999994,71,100,5.75,CA,1676058222
41,marzuq,14.4,46.4667,-342.868,66,1,1.86,YE,1676058222
42,moorhead,46.8739,-96.7676,-411.178,78,0,13.8,US,1676058223
43,hambantota,6.1241,81.1185,-323.662,78,100,17.02,LK,1676058223
44,ixtapa,20.7,-105.2,-322.45599999999996,53,20,8.05,MX,1676058223
45,adrar,20.5022,-10.0711,-332.968,15,100,18.41,MR,1676058224
46,kavieng,-2.5744,150.7967,-317.46999999999997,83,100,7.83,PG,1676058224
47,new norfolk,-42.7826,147.0587,-347.89,74,42,0.49,AU,1676058225
48,quatre cocos,-20.2078,57.7625,-314.392,78,24,13.78,MU,1676058225
49,saldanha,-33.0117,17.9442,-336.65799999999996,78,0,6.08,ZA,1676058225
50,mogadishu,2.0371,45.3438,-322.402,82,20,22.44,SO,1676058061
51,dikson,73.5069,80.5464,-439.65399999999994,93,100,15.7,RU,1676058226
52,kenai,60.5544,-151.2583,-434.218,86,100,24.16,US,1676058089
53,karasjok,69.4719,25.5112,-429.77199999999993,83,100,12.93,NO,1676058227
54,busselton,-33.65,115.3333,-356.962,77,0,9.13,AU,1676058227
55,codrington,-38.2667,141.9667,-358.13199999999995,97,3,8.55,AU,1676058227
56,port elizabeth,-33.918,25.5701,-333.4719999999999,83,0,4.61,ZA,1676058228
57,cherskiy,68.75,161.3,-528.304,98,100,5.26,RU,1676058228
58,turukhansk,65.8167,87.9833,-446.16999999999996,95,100,20.83,RU,1676058229
59,zhezkazgan,47.8043,67.7144,-439.13199999999995,95,100,8.99,KZ,1676058229
60,genc,38.7507,40.5603,-442.21,84,3,5.66,TR,1676058230
61,amuntai,-2.4177,115.2494,-327.226,94,99,1.21,ID,1676058230
62,victoria,22.2855,114.1577,-335.56,93,100,11.99,HK,1676058012
63,vanderhoof,54.0166,-124.0198,-397.948,86,100,2.08,CA,1676058231
64,saint-philippe,-21.3585,55.7679,-318.568,78,37,12.17,RE,1676058075
65,terney,45.0503,136.6092,-433.49799999999993,88,20,5.01,RU,1676058231
66,puerto leguizamo,-0.1934,-74.7819,-317.794,92,95,3.38,CO,1676058232
67,khatanga,71.9667,102.5,-519.916,93,13,9.26,RU,1676058232
68,san quintin,30.4833,-115.95,-338.44,26,54,5.73,MX,1676058234
69,ushuaia,-54.8,-68.3,-354.082,51,75,12.66,AR,1676058234
70,okhotsk,59.3833,143.3,-483.808,78,97,11.25,RU,1676058235
71,nikolskoye,59.7035,30.7861,-405.508,77,100,16.8,RU,1676058235
72,arraial do cabo,-22.9661,-42.0278,-304.942,61,0,17.27,BR,1676058235
73,avarua,-21.2078,-159.775,-311.26,74,20,5.75,CK,1676058236
74,georgetown,5.4112,100.3354,-317.95599999999996,94,20,2.3,MY,1676058078
75,snezhnogorsk,69.1933,33.2531,-431.626,93,100,4.92,RU,1676058236
76,souillac,-20.5167,57.5167,-313.90599999999995,69,40,9.22,MU,1676058237
77,fortuna,40.5982,-124.1573,-373.88199999999995,92,40,0.0,US,1676058237
78,tuatapere,-46.1333,167.6833,-360.84999999999997,73,60,4.23,NZ,1676058238
79,manicore,-5.8092,-61.3003,-308.19999999999993,79,0,6.91,BR,1676058238
80,bambous virieux,-20.3428,57.7575,-314.14,69,40,9.22,MU,1676058239
81,port hardy,50.6996,-127.4199,-379.066,93,75,10.36,CA,1676058239
82,clyde river,70.4692,-68.5914,-515.0559999999999,68,0,4.61,CA,1676058240
83,matara,5.9485,80.5353,-327.54999999999995,90,100,5.95,LK,1676058240
84,taywarah,33.35,64.4167,-446.65599999999995,77,31,3.56,AF,1676058241
85,qrendi,35.8347,14.4583,-367.042,93,100,27.63,MT,1676058241
86,alindao,5.0267,21.2088,-315.31,21,6,0.74,CF,1676058242
87,katherine,-14.4667,132.2667,-323.734,94,75,0.0,AU,1676058243
88,sola,-13.8833,167.55,-311.746,72,100,11.61,VU,1676058243
89,longyearbyen,78.2186,15.6401,-421.798,68,75,13.8,SJ,1676058244
90,guerrero negro,27.9769,-114.0611,-329.29599999999994,19,100,1.5,MX,1676058168
91,provideniya,64.3833,-173.3,-493.76199999999994,92,98,8.37,RU,1676058245
92,derzhavinsk,51.1,66.3167,-444.28,97,98,9.08,KZ,1676058245
93,korla,41.7597,86.1469,-397.894,44,100,10.58,CN,1676058246
94,fairbanks,64.8378,-147.7164,-462.892,76,40,5.75,US,1676058033
95,shimoda,34.6667,138.95,-378.48999999999995,85,75,5.73,JP,1676058247
96,qaanaaq,77.484,-69.3632,-487.73199999999997,53,4,2.35,GL,1676058247
97,waipawa,-41.4122,175.5153,-354.64,69,73,8.16,NZ,1676058248
98,shilka,51.85,116.0333,-473.54799999999994,100,83,0.56,RU,1676058249
99,kutum,14.2,24.6667,-336.85599999999994,12,1,8.3,SD,1676058249
100,alofi,-19.0595,-169.9187,-318.02799999999996,94,75,4.61,NU,1676058250
101,vao,-22.6667,167.4833,-315.59799999999996,86,100,42.57,NC,1676058153
102,salalah,17.0151,54.0924,-314.428,21,0,6.91,OM,1676058106
103,dunedin,-45.8742,170.5036,-359.14,78,19,1.63,NZ,1676057997
104,mariental,-24.6333,17.9667,-309.85599999999994,17,4,8.39,NA,1676058251
105,san ignacio,17.1561,-89.0714,-301.378,55,40,6.91,BZ,1676058251
106,thompson,55.7435,-97.8558,-430.942,73,100,2.3,CA,1676058227
107,kattivakkam,13.2167,80.3167,-320.90799999999996,68,26,6.15,IN,1676058252
108,chandler,33.3062,-111.8412,-338.65599999999995,14,0,18.41,US,1676058159
109,sao joao da barra,-21.6403,-41.0511,-304.70799999999997,85,1,15.68,BR,1676058253
110,labuan,5.2767,115.2417,-320.42199999999997,100,20,2.3,MY,1676058201
111,sherghati,24.5667,84.7833,-352.58799999999997,36,0,1.79,IN,1676058254
112,fort nelson,58.8053,-122.7002,-429.15999999999997,80,100,4.0,CA,1676058254
113,yellowknife,62.456,-114.3525,-471.28,84,100,4.61,CA,1676057992
114,karasuk,53.7377,78.0403,-481.36,99,48,5.41,RU,1676058255
115,tiksi,71.6872,128.8694,-517.576,98,99,4.18,RU,1676058256
116,abbeville,50.1,1.8333,-376.2219999999999,94,95,7.7,FR,1676058257
117,hibbing,47.4272,-92.9377,-412.96,83,21,6.53,US,1676058257
118,shellbrook,53.2168,-106.4011,-419.656,85,95,7.18,CA,1676058258
119,urmary,55.6789,47.944,-429.286,91,62,13.65,RU,1676058259
120,biak,-0.9131,122.8766,-322.97799999999995,78,100,3.58,ID,1676058259
121,omboue,-1.5746,9.2618,-316.69599999999997,86,100,3.87,GA,1676058260
122,port alfred,-33.5906,26.891,-331.52799999999996,89,95,10.96,ZA,1676058260
123,paragominas,-2.9667,-47.4833,-313.06,84,27,3.53,BR,1676058261
124,chokurdakh,70.6333,147.9167,-550.372,100,73,5.08,RU,1676058261
125,morgan city,29.6994,-91.2068,-351.652,67,100,4.61,US,1676058262
126,roebourne,-20.7833,117.1333,-307.37199999999996,69,82,14.2,AU,1676058263
127,geraldton,-28.7667,114.6,-343.01199999999994,82,0,10.36,AU,1676058263
128,tasiilaq,65.6145,-37.6368,-417.98199999999997,94,100,7.29,GL,1676058264
129,olafsvik,64.8945,-23.7142,-388.26399999999995,82,100,33.67,IS,1676058265
130,tuktoyaktuk,69.4541,-133.0374,-496.03,76,75,12.66,CA,1676058265
131,nouadhibou,20.931,-17.0347,-340.54599999999994,82,0,11.5,MR,1676058266
132,castro,-24.7911,-50.0119,-342.29200000000003,96,93,11.43,BR,1676058266
133,gwadar,25.1216,62.3254,-331.56399999999996,59,0,9.69,PK,1676058267
134,camocim,-2.9022,-40.8411,-314.67999999999995,83,92,12.77,BR,1676058268
135,hobyo,5.3505,48.5268,-322.1139999999999,73,90,21.07,SO,1676058122
136,verkh-suetka,53.3,80.05,-470.11,97,95,6.62,RU,1676058268
137,taybad,34.74,60.7756,-408.99999999999994,70,78,14.97,IR,1676058269
138,cayenne,4.9333,-52.3333,-317.758,89,75,10.36,GF,1676057984
139,ahipara,-35.1667,173.1667,-342.70599999999996,83,100,9.82,NZ,1676058270
140,nome,64.5011,-165.4064,-460.26399999999995,65,40,10.36,US,1676058271
141,bluff,-46.6,168.3333,-361.01199999999994,80,54,6.46,NZ,1676058271
142,sitka,57.0531,-135.33,-389.30799999999994,60,100,11.5,US,1676058272
143,kysyl-syr,63.8986,122.7617,-543.7299999999999,99,94,4.03,RU,1676058273
144,georgiyevka,43.0369,74.7114,-447.358,92,100,6.71,KZ,1676058274
145,balikpapan,-1.2675,116.8289,-319.28799999999995,94,40,5.75,ID,1676058274
146,olinda,-8.0089,-34.8553,-308.59599999999995,65,40,9.22,BR,1676058275
147,namatanai,-3.6667,152.4333,-318.87399999999997,86,100,6.91,PG,1676058275
148,dunkirk,51.05,2.3667,-380.452,42,95,13.96,FR,1676058276
149,north bend,43.4065,-124.2243,-369.832,94,75,5.75,US,1676058183
150,saskylakh,71.9167,114.0833,-541.066,98,54,7.38,RU,1676058277
151,aleksandrovskoye,44.7142,43.0008,-444.51399999999995,100,100,2.71,RU,1676058278
152,rajsamand,25.0667,73.8833,-342.38199999999995,36,0,8.14,IN,1676058278
153,meulaboh,4.1363,96.1285,-326.5059999999999,91,96,3.74,ID,1676058279
154,cidreira,-30.1811,-50.2056,-316.21,72,0,10.4,BR,1676058279
155,butaritari,3.0707,172.7902,-313.90599999999995,80,100,21.03,KI,1676058280
156,hasaki,35.7333,140.8333,-388.39,69,100,25.26,JP,1676058280
157,divnomorskoye,44.5011,38.1353,-397.62399999999997,91,100,2.13,RU,1676058281
158,caiaponia,-16.9567,-51.8103,-315.436,69,89,1.48,BR,1676058282
159,macia,-25.0269,33.0989,-323.08599999999996,91,100,8.63,MZ,1676058282
160,wichita falls,33.9137,-98.4934,-383.602,47,75,17.27,US,1676058174
161,east london,-33.0153,27.9116,-330.53799999999995,82,100,8.1,ZA,1676058283
162,puerto cabello,10.4731,-68.0125,-289.47999999999996,80,58,14.88,VE,1676058283
163,kaitangata,-46.2817,169.8464,-363.352,71,19,2.33,NZ,1676058284
164,olavarria,-36.8927,-60.3225,-275.99799999999993,13,1,7.29,AR,1676058284
165,arlit,18.7369,7.3853,-321.844,14,1,10.42,NE,1676058285
166,sao filipe,14.8961,-24.4956,-333.38199999999995,75,95,8.5,CV,1676058285
167,bad essen,52.3167,8.3333,-384.12399999999997,74,62,13.98,DE,1676058286
168,shiraoi,42.55,141.35,-426.89199999999994,91,100,5.99,JP,1676058286
169,mar del plata,-38.0023,-57.5575,-317.794,83,20,14.97,AR,1676058141
170,shelburne,44.0787,-80.2041,-402.4839999999999,91,92,20.18,CA,1676058287
171,carman,49.4992,-98.0016,-401.94399999999996,59,57,10.36,CA,1676058288
172,nagato,34.3833,131.2,-373.52199999999993,68,97,9.53,JP,1676058288
173,sorland,67.667,12.6934,-405.56199999999995,62,100,23.76,NO,1676058289
174,ponta do sol,32.6667,-17.1,-349.86999999999995,82,100,10.78,PT,1676058289
175,port blair,11.6667,92.75,-317.758,73,4,2.3,IN,1676058290
176,lompoc,34.6391,-120.4579,-324.634,62,75,9.22,US,1676058290
177,bengkulu,-3.8004,102.2655,-324.99399999999997,89,42,8.34,ID,1676058291
178,iqaluit,63.7506,-68.5145,-508.828,67,20,12.66,CA,1676058291
179,borogontsy,62.6683,131.1683,-548.842,100,69,3.87,RU,1676058291
180,kahului,20.8947,-156.47,-323.14,76,40,18.99,US,1676058188
181,carauari,-4.8828,-66.8958,-307.74999999999994,74,74,1.1,BR,1676058292
182,klaksvik,62.2266,-6.589,-374.49399999999997,82,100,34.45,FO,1676058292
183,dzaoudzi,-12.7887,45.2699,-308.30799999999994,74,100,8.05,YT,1676058293
184,jingdezhen,29.2947,117.2079,-370.678,97,95,1.66,CN,1676058293
185,labuhan,-6.8844,112.2051,-319.576,87,100,8.93,ID,1676058294
186,gorontalo,0.5412,123.0595,-325.318,94,100,4.14,ID,1676058295
187,formosa do rio preto,-11.0483,-45.1931,-298.804,37,88,7.85,BR,1676058295
188,tyulyachi,55.8913,50.2399,-430.74399999999997,95,76,11.72,RU,1676058296
189,yankton,42.8711,-97.3973,-392.87199999999996,51,0,8.05,US,1676058296
190,kruisfontein,-34.0033,24.7314,-337.468,85,0,7.63,ZA,1676058138
191,atar,20.5169,-13.0499,-336.20799999999997,41,55,3.51,MR,1676058297
192,aqtobe,50.2797,57.2072,-427.828,86,100,20.13,KZ,1676058297
193,mingaora,34.7758,72.3625,-382.07199999999995,62,91,5.99,PK,1676058297
194,birjand,32.8663,59.2211,-407.70399999999995,74,0,9.22,IR,1676058298
195,pangani,-5.4333,38.9667,-319.41399999999993,88,65,7.7,TZ,1676058298
196,ancud,-41.8697,-73.8203,-349.45599999999996,80,99,12.44,CL,1676058299
197,moba,33.2288,105.0179,-397.498,90,100,5.88,CN,1676058299
198,asau,46.4333,26.4,-429.5739999999999,91,23,6.58,RO,1676058300
199,faanui,-16.4833,-151.75,-313.294,73,28,12.55,PF,1676058301
200,kailua,21.4022,-157.7394,-319.44999999999993,66,20,21.85,US,1676058303
201,tynda,55.1667,124.7167,-504.03999999999996,100,97,1.81,RU,1676058303
202,borovskoy,53.8,64.15,-429.8979999999999,98,100,3.47,KZ,1676058304
203,bandarbeyla,9.4942,50.8122,-322.852,70,53,20.65,SO,1676058305
204,iskateley,67.6803,53.1512,-415.426,94,100,15.84,RU,1676058305
205,creel,27.75,-107.6333,-359.176,15,6,11.79,MX,1676058306
206,saint-augustin,51.226,-58.6502,-439.294,72,100,5.17,CA,1676058307
207,grootfontein,-19.5667,18.1167,-338.044,73,1,3.44,NA,1676058307
208,liuhe,42.2401,125.7172,-431.30199999999996,94,89,6.35,CN,1676058308
209,san jose,37.3394,-121.895,-348.89799999999997,72,75,9.22,US,1676058220
210,general roca,-39.0333,-67.5833,-287.536,11,0,6.08,AR,1676058309
211,imeni poliny osipenko,52.4201,136.4853,-510.08799999999997,100,100,0.36,RU,1676058309
212,charyshskoye,51.3978,83.5598,-450.90399999999994,94,100,3.4,RU,1676058310
213,oktyabrskoye,43.0645,44.7417,-434.218,92,94,8.95,RU,1676058310
214,tarija,-21.5355,-64.7296,-317.992,50,20,11.5,BO,1676058311
215,chapais,49.7834,-74.8492,-434.86600000000004,89,100,8.97,CA,1676058312
216,dungarvan,52.0881,-7.6253,-369.74199999999996,86,100,8.99,IE,1676058313
217,mezen,65.8522,44.24,-419.116,95,100,9.98,RU,1676058313
218,san patricio,28.017,-97.5169,-340.59999999999997,45,11,21.63,US,1676058314
219,kodino,63.7198,39.6447,-417.748,94,100,8.66,RU,1676058314
220,bathsheba,13.2167,-59.5167,-310.252,61,20,25.32,BB,1676058111
221,kuandian,40.7286,124.7847,-415.912,94,7,3.2,CN,1676058315
222,buala,-8.145,159.5921,-316.44399999999996,80,100,3.94,SB,1676058316
223,kabare,-2.4683,28.8242,-348.35799999999995,84,70,0.96,CD,1676058316
224,lara,-38.0167,144.4,-345.33399999999995,96,0,4.61,AU,1676058317
225,tolaga bay,-38.3667,178.3,-346.50399999999996,69,100,6.15,NZ,1676058318
226,tautira,-17.7333,-149.15,-314.626,77,26,12.37,PF,1676058319
227,whitehorse,60.7161,-135.0538,-427.09,77,20,5.75,CA,1676058079
228,shamkhal,43.0596,47.3373,-411.826,77,96,6.11,RU,1676058320
229,byron bay,-28.65,153.6167,-339.178,90,26,9.15,AU,1676058320
230,pietersburg,-23.9045,29.4688,-343.33599999999996,92,62,6.85,ZA,1676058321
231,barrow,71.2906,-156.7887,-473.31399999999996,77,100,11.5,US,1676058322
232,morwell,-38.2333,146.4,-350.94999999999993,83,0,4.23,AU,1676058322
233,moron,-34.6534,-58.6198,-276.034,34,0,3.62,AR,1676058323
234,floriano,-6.7669,-43.0225,-290.6139999999999,36,98,6.38,BR,1676058324
235,araouane,18.9048,-3.5265,-312.35799999999995,9,94,8.39,ML,1676058325
236,broome,42.2506,-75.833,-382.828,74,100,17.27,US,1676058326
237,eslov,55.8393,13.3039,-385.83399999999995,93,100,18.72,SE,1676058327
238,bethel,41.3712,-73.414,-356.94399999999996,45,0,16.11,US,1676058053
239,gunjur,13.2019,-16.7339,-314.46399999999994,50,9,8.05,GM,1676058328
240,belmonte,-15.8631,-38.8828,-312.034,73,1,9.44,BR,1676058328
241,stuttgart,48.7823,9.177,-396.95799999999997,81,0,4.61,DE,1676058330
242,sieradz,51.5958,18.7302,-397.246,90,100,10.71,PL,1676058331
243,malanje,-9.5402,16.341,-341.40999999999997,76,6,2.28,AO,1676058331
244,loveland,40.3978,-105.075,-372.83799999999997,38,4,4.0,US,1676058308
245,vydrino,51.485,104.8461,-451.408,91,88,5.23,RU,1676058332
246,zeya,53.75,127.2667,-472.79200000000003,96,100,3.0,RU,1676058333
247,fairview,40.8126,-73.999,-354.44199999999995,38,0,17.27,US,1676058334
248,firminopolis,-16.5819,-50.305,-314.518,73,80,3.11,BR,1676058334
249,haines junction,60.7522,-137.5108,-460.47999999999996,78,100,2.3,CA,1676058335
250,egvekinot,66.3167,-179.1667,-512.2660000000001,89,25,9.19,RU,1676058336
251,smithers,54.7804,-127.1743,-401.49399999999997,100,100,2.3,CA,1676058327
252,igrim,63.1906,64.4162,-424.354,91,85,9.31,RU,1676058337
253,khorixas,-20.3667,14.9667,-328.6479999999999,54,1,14.58,NA,1676058337
254,praia da vitoria,38.7333,-27.0667,-352.102,82,20,5.79,PT,1676058338
255,la ronge,55.1001,-105.2842,-417.82,58,100,2.3,CA,1676058322
256,husavik,66.0449,-17.3389,-393.93399999999997,82,100,11.77,IS,1676058338
257,royan,45.6285,-1.0281,-386.12199999999996,74,0,8.95,FR,1676058339
258,kavaratti,10.5669,72.642,-316.29999999999995,78,100,8.81,IN,1676058340
259,abha,18.2164,42.5053,-357.03399999999993,82,0,0.0,SA,1676058287
260,longview,32.5007,-94.7405,-372.46,75,100,10.36,US,1676058175
261,marawi,7.9986,124.2928,-339.628,96,84,0.25,PH,1676058341
262,alyangula,-13.8483,136.4192,-312.87999999999994,81,100,12.95,AU,1676058341
263,vila velha,-20.3297,-40.2925,-304.96,72,20,18.41,BR,1676058257
264,todireni,47.6167,27.1167,-421.43799999999993,90,15,2.82,RO,1676058342
265,zemio,5.0314,25.1361,-318.118,26,44,1.99,CF,1676058343
266,kununurra,-15.7667,128.7333,-327.58599999999996,88,75,13.8,AU,1676058343
267,sao luiz gonzaga,-28.4083,-54.9608,-284.044,20,57,4.25,BR,1676058344
268,ostrovnoy,68.0531,39.5131,-412.924,92,100,3.91,RU,1676058344
269,sabla,12.7525,4.7077,-316.37199999999996,8,0,10.31,NG,1676058345
270,mehamn,71.0357,27.8492,-411.87999999999994,74,40,27.63,NO,1676058346
271,crib point,-38.35,145.2,-344.65,71,0,9.42,AU,1676058346
272,ledyard,41.4398,-72.0142,-349.70799999999997,41,0,11.5,US,1676058199
273,matadi,-5.8167,13.45,-317.902,86,65,6.46,CD,1676058347
274,kurilsk,45.2333,147.8833,-433.426,68,99,3.2,RU,1676058347
275,ribeira grande,38.5167,-28.7,-352.08399999999995,72,20,8.01,PT,1676058348
276,ulladulla,-35.35,150.4667,-343.876,81,49,3.78,AU,1676058349
277,bajil,15.0584,43.2851,-316.246,62,0,5.35,YE,1676058349
278,ornskoldsvik,63.2909,18.7153,-410.0799999999999,74,75,10.36,SE,1676058350
279,buta,2.7858,24.73,-319.28799999999995,30,90,1.7,CD,1676058350
280,nanakuli,21.3906,-158.1547,-319.52199999999993,53,0,12.66,US,1676058351
281,puerto del rosario,28.5004,-13.8627,-350.67999999999995,77,40,6.91,ES,1676058351
282,chuy,-33.6971,-53.4616,-307.462,51,0,13.8,UY,1676058352
283,lorengau,-2.0226,147.2712,-317.578,85,100,8.72,PG,1676058352
284,karratha,-20.7377,116.8463,-307.984,71,48,14.97,AU,1676058353
285,acajutla,13.5928,-89.8275,-308.434,61,23,8.5,SV,1676058118
286,abalak,58.1286,68.5944,-456.142,97,84,7.05,RU,1676058353
287,airai,-8.9266,125.4092,-351.68799999999993,95,100,2.71,TL,1676058354
288,nova olimpia,-14.7972,-57.2881,-302.40399999999994,62,67,4.99,BR,1676058354
289,sibu,2.3,111.8167,-323.752,94,40,2.3,MY,1676058355
290,port moresby,-9.4431,147.1797,-325.354,100,40,9.22,PG,1676058355
291,khunzakh,42.5394,46.705,-432.59799999999996,84,100,5.01,RU,1676058355
292,ati,13.2154,18.3353,-318.676,9,1,10.89,TD,1676058356
293,petropavlovsk-kamchatskiy,53.0452,158.6483,-465.808,65,20,8.95,RU,1676058356
294,flagstaff,35.1981,-111.6513,-384.05199999999996,28,0,10.36,US,1676058315
295,krasnoselkup,65.7,82.4667,-436.342,93,100,22.17,RU,1676058357
296,nabire,-3.3667,135.4833,-327.99999999999994,92,100,2.35,ID,1676058357
297,bagdarin,54.4333,113.6,-479.344,98,25,3.67,RU,1676058358
298,marau,-28.4492,-52.2,-314.67999999999995,57,63,8.25,BR,1676058358
299,piacabucu,-10.4056,-36.4344,-311.116,68,100,11.9,BR,1676058327
300,ternate,0.8,127.4,-316.894,83,100,8.55,ID,1676058219
301,akropong,5.9746,-0.0854,-318.40599999999995,70,1,6.49,GH,1676058359
302,sapa,5.1544,120.3241,-316.85799999999995,80,100,5.44,PH,1676058359
303,christchurch,-43.5333,172.6333,-351.76,91,57,6.91,NZ,1676058360
304,muravlenko,63.7898,74.523,-435.72999999999996,93,98,18.25,RU,1676058360
305,golfito,8.639,-83.166,-304.996,63,73,7.29,CR,1676058361
306,tromso,69.6496,18.957,-411.75399999999996,86,75,8.05,NO,1676058361
307,pisco,-13.7,-76.2167,-320.97999999999996,78,0,11.5,PE,1676058086
308,coahuayana,18.7333,-103.6833,-300.29799999999994,38,1,7.63,MX,1676058362
309,hithadhoo,-0.6,73.0833,-313.86999999999995,75,68,12.82,MV,1676058363
310,yuzhou,34.1628,113.4639,-393.08799999999997,97,100,1.97,CN,1676058363
311,vilyuysk,63.7553,121.6247,-536.2959999999999,99,98,3.85,RU,1676058364
312,leningradskiy,69.3833,178.4167,-497.938,97,100,11.01,RU,1676058365
313,bulgan,48.8125,103.5347,-455.27799999999996,98,100,2.73,MN,1676058365
314,mayumba,-3.432,10.6554,-315.84999999999997,83,100,6.2,GA,1676058366
315,bonfim,3.0833,-59.95,-300.69399999999996,44,100,10.22,BR,1676058366
316,xuanhua,40.6103,115.0447,-418.84599999999995,89,63,0.27,CN,1676058367
317,jackson,42.4165,-122.8345,-372.99999999999994,64,100,2.57,US,1676058132
318,paamiut,61.994,-49.6678,-448.888,85,90,10.56,GL,1676058367
319,pevek,69.7008,170.3133,-506.75800000000004,95,100,6.31,RU,1676058368
320,hualmay,-11.0964,-77.6139,-320.224,73,69,9.46,PE,1676058368
321,esperance,-33.8667,121.9,-341.968,79,76,14.54,AU,1676058369
322,port macquarie,-31.4333,152.9167,-348.24999999999994,90,9,4.41,AU,1676058370
323,sant feliu de guixols,41.7833,3.0333,-375.21399999999994,77,0,1.7,ES,1676058370
324,sinnamary,5.3833,-52.95,-317.758,78,100,13.22,GF,1676058371
325,kochevo,59.5994,54.3125,-422.89599999999996,92,99,9.84,RU,1676058372
326,kimbe,-5.5502,150.1429,-322.924,94,100,2.24,PG,1676058372
327,santa isabel,-23.3156,-46.2214,-319.702,80,100,4.25,BR,1676058373
328,ossora,59.2353,163.0719,-444.15399999999994,95,100,15.12,RU,1676058374
329,los llanos de aridane,28.6585,-17.9182,-350.67999999999995,83,40,6.91,ES,1676058374
330,namibe,-15.1961,12.1522,-330.75399999999996,78,85,5.77,AO,1676058375
331,portland,45.5234,-122.6762,-363.604,90,75,4.61,US,1676058111
332,bilibino,68.0546,166.4372,-538.348,100,94,1.48,RU,1676058375
333,bairnsdale,-37.8333,147.6167,-349.78,96,0,1.01,AU,1676058376
334,kampene,-3.6,26.6667,-334.44399999999996,88,100,1.54,CD,1676058377
335,touros,-5.1989,-35.4608,-310.53999999999996,65,94,13.96,BR,1676058102
336,warragul,-38.1667,145.9333,-349.06,72,0,6.55,AU,1676058377
337,tanout,14.9709,8.8879,-328.234,12,1,12.93,NE,1676058378
338,lake jackson,29.0339,-95.4344,-343.678,60,100,16.11,US,1676058379
339,kommunar,59.6206,30.39,-406.156,77,79,18.61,RU,1676058379
340,baruun-urt,46.6806,113.2792,-462.58599999999996,95,38,4.0,MN,1676058380
341,awbari,26.5921,12.7805,-365.06199999999995,43,34,7.0,LY,1676058381
342,capreol,46.706,-80.9225,-422.67999999999995,93,100,10.36,CA,1676058381
343,alice springs,-23.7,133.8833,-334.84,68,0,0.0,AU,1676058283
344,muhos,64.808,25.9931,-408.94599999999997,88,67,6.71,FI,1676058382
345,muros,42.7762,-9.0603,-374.926,70,0,8.08,ES,1676058382
346,lebu,-37.6167,-73.65,-343.066,68,1,14.14,CL,1676058383
347,avera,33.194,-82.5271,-337.43199999999996,68,100,7.45,US,1676058383
348,buraydah,26.326,43.975,-349.41999999999996,39,99,12.35,SA,1676058384
349,santa fe,-31.6333,-60.7,-274.252,24,0,11.01,AR,1676058384
350,petrovsk-zabaykalskiy,51.273,108.843,-478.246,100,97,2.73,RU,1676058385
351,lasa,46.6166,10.7002,-394.006,52,31,5.17,IT,1676058386
352,tiruchchendur,8.4833,78.1167,-321.35799999999995,69,100,14.2,IN,1676058386
353,chernyshevsk,52.5243,117.0174,-487.804,100,95,3.33,RU,1676058387
354,loucovice,48.6202,14.2575,-411.952,91,45,2.71,CZ,1676058388
355,muli,2.9167,73.5667,-314.392,69,17,11.99,MV,1676058389
356,san angelo,31.4638,-100.437,-370.40799999999996,42,20,16.11,US,1676058346
357,bend,44.0582,-121.3153,-375.34,61,0,1.99,US,1676058361
358,nagyszenas,46.6833,20.6667,-414.70599999999996,59,92,4.85,HU,1676058389
359,san policarpo,12.1791,125.5072,-317.41599999999994,84,16,15.88,PH,1676058390
360,paciran,-6.8767,112.3761,-319.77399999999994,88,97,9.53,ID,1676058391
361,alghero,40.5589,8.3181,-392.18799999999993,87,0,2.3,IT,1676058391
362,fort wellington,6.4,-57.6,-316.29999999999995,73,40,9.57,GY,1676058392
363,aklavik,68.2191,-135.0107,-483.06999999999994,77,100,8.05,CA,1676058393
364,siniscola,40.5719,9.6922,-396.4,70,0,6.89,IT,1676058393
365,morondava,-20.2833,44.2833,-315.976,76,100,2.68,MG,1676058393
366,birin,26.8865,88.0718,-376.798,76,11,4.21,NP,1676058394
367,spornoye,50.8448,37.2913,-424.26399999999995,86,26,12.35,RU,1676058394
368,laiwu,36.1928,117.6569,-390.406,78,100,4.05,CN,1676058396
369,tura,25.5198,90.2201,-353.43399999999997,63,0,3.04,IN,1676058396
370,spring valley,36.108,-115.245,-358.3299999999999,19,0,8.05,US,1676058397
371,cabo san lucas,22.8909,-109.9124,-309.36999999999995,44,0,11.5,MX,1676058397
372,ilulissat,69.2167,-51.1,-486.2739999999999,70,40,8.05,GL,1676058398
373,broken hill,-31.95,141.4333,-332.734,42,0,7.27,AU,1676058398
374,roma,43.2128,-75.4557,-387.74199999999996,79,100,16.11,US,1676058399
375,gravdal,68.1214,13.5031,-408.748,74,40,13.8,NO,1676058399
376,arecibo,18.4724,-66.7157,-307.984,77,10,5.01,PR,1676058265
377,noyabrsk,63.1994,75.4507,-435.928,92,100,20.6,RU,1676058400
378,saint-francois,46.4154,3.9054,-400.36,83,8,3.44,FR,1676058400
379,micheweni,-4.9667,39.8333,-314.26599999999996,79,5,11.3,TZ,1676058401
380,vostok,46.4856,135.8833,-446.22399999999993,97,98,3.29,RU,1676058401
381,kedougou,12.5579,-12.1743,-294.53799999999995,23,2,4.27,SN,1676058401
382,caravelas,-17.7125,-39.2481,-311.584,71,0,9.42,BR,1676058402
383,makakilo city,21.3469,-158.0858,-322.078,59,0,19.57,US,1676058402
384,eureka,40.8021,-124.1637,-371.128,92,100,4.0,US,1676058109
385,moose factory,51.2585,-80.6094,-424.74999999999994,41,0,10.36,CA,1676058403
386,mount gambier,-37.8333,140.7667,-348.64599999999996,79,100,9.28,AU,1676058403
387,saint-denis,48.9167,2.3333,-376.59999999999997,84,0,5.75,FR,1676058404
388,gao,16.6362,1.637,-315.11199999999997,9,1,10.78,ML,1676058404
389,praya,14.9215,-23.5087,-329.818,64,75,16.11,CV,1676058404
390,charters towers,-20.1,146.2667,-332.32,88,12,4.61,AU,1676058405
391,padang,-0.9492,100.3543,-323.91399999999993,85,94,5.32,ID,1676058406
392,banda aceh,5.5577,95.3222,-320.332,81,100,5.01,ID,1676058293
393,kuusamo,65.9667,29.1833,-427.918,86,0,11.5,FI,1676058406
394,fuerte olimpo,-21.0415,-57.8738,-312.412,79,98,4.38,PY,1676058407
395,forbes,-33.3833,148.0167,-326.6139999999999,53,73,7.36,AU,1676058407
396,pacific grove,36.6177,-121.9166,-352.786,79,75,11.01,US,1676058177
397,honiara,-9.4333,159.95,-318.082,87,94,2.42,SB,1676058297
398,berlevag,70.8578,29.0864,-411.78999999999996,63,0,26.46,NO,1676058408
399,riyadh,24.6877,46.7219,-353.218,38,31,14.16,SA,1676058283
400,taber,49.8167,-112.1518,-372.54999999999995,43,15,28.77,CA,1676058162
401,sisimiut,66.9395,-53.6735,-485.626,100,99,6.42,GL,1676058409
402,horta,38.5333,-28.6333,-353.43399999999997,80,20,8.01,PT,1676058409
403,kupang,-10.1667,123.5833,-316.768,85,100,11.7,ID,1676058410
404,banjar,-8.19,114.9675,-323.33799999999997,91,100,1.19,ID,1676058410
405,krasnoarmeysk,51.0239,45.6969,-431.644,93,99,11.45,RU,1676058411
406,beyneu,45.3167,55.2,-425.758,93,84,8.57,KZ,1676058411
407,yar-sale,66.8333,70.8333,-434.63199999999995,93,11,11.43,RU,1676058113
408,college,64.8569,-147.8028,-468.85,78,40,5.75,US,1676058411
409,gwanda,-20.9333,29.0,-330.91599999999994,80,96,4.61,ZW,1676058412
410,suntar,62.1444,117.6319,-500.818,99,99,2.75,RU,1676058412
411,whithorn,18.2604,-78.0378,-312.68199999999996,66,57,3.09,JM,1676058413
412,hofn,64.2539,-15.2082,-394.70799999999997,82,100,8.19,IS,1676058413
413,cullman,34.1748,-86.8436,-353.27199999999993,50,0,6.91,US,1676058414
414,comodoro rivadavia,-45.8667,-67.5,-308.36199999999997,14,0,21.85,AR,1676058414
415,itaguai,-22.8522,-43.7753,-305.554,78,75,11.5,BR,1676058415
416,laem sing,12.4816,102.0738,-310.018,79,51,2.37,TH,1676058415
417,dakar,14.6937,-17.4441,-329.20599999999996,77,0,11.5,SN,1676058244
418,matamoros,25.5333,-103.25,-356.87199999999996,29,4,16.73,MX,1676058416
419,jiuquan,39.7432,98.5174,-408.58599999999996,37,97,7.43,CN,1676058416
420,tateyama,34.9833,139.8667,-378.48999999999995,68,58,21.56,JP,1676058417
421,nombre de dios,23.85,-104.2333,-354.28,11,2,10.36,MX,1676058417
422,inhambane,-23.865,35.3833,-311.38599999999997,94,75,5.99,MZ,1676058418
423,san pedro,14.35,121.0167,-319.21599999999995,76,20,5.75,PH,1676058418
424,boende,-0.2167,20.8667,-312.034,49,97,1.68,CD,1676058419
425,altagracia de orituco,9.8601,-66.3814,-309.76599999999996,51,89,8.25,VE,1676058419
426,mareeba,-17.0,145.4333,-329.49399999999997,95,99,2.26,AU,1676058178
427,ust-ilimsk,58.0006,102.6619,-468.12999999999994,100,100,2.89,RU,1676058420
428,ipameri,-17.7219,-48.1597,-317.27199999999993,71,86,0.89,BR,1676058421
429,qaqortoq,60.7167,-46.0333,-442.04799999999994,82,65,1.81,GL,1676058422
430,katsuura,35.1333,140.3,-374.20599999999996,77,50,17.69,JP,1676058423
431,daru,-9.0763,143.2092,-320.87199999999996,89,100,12.73,PG,1676058424
432,kharhial,20.2833,82.7667,-338.16999999999996,24,10,2.91,IN,1676058425
433,bundaberg,-24.85,152.35,-335.07399999999996,93,0,1.99,AU,1676058425
434,bullhead city,35.1478,-114.5683,-344.974,18,0,20.71,US,1676058398
435,golden,39.7555,-105.2211,-364.2339999999999,21,0,10.36,US,1676058420
436,luderitz,-26.6481,15.1594,-345.118,97,42,4.63,NA,1676058426
437,tougue,11.4667,-11.6,-321.96999999999997,55,74,2.68,GN,1676058427
438,narsaq,60.9167,-46.05,-421.1139999999999,93,87,3.67,GL,1676058221
439,san cristobal,7.7669,-72.225,-323.986,54,95,6.44,VE,1676058428
440,port lincoln,-34.7333,135.8667,-344.30799999999994,78,80,17.11,AU,1676058429
441,malur,13.0075,77.9378,-340.582,64,100,5.61,IN,1676058429
442,gat,31.61,34.7642,-365.368,71,1,5.91,IL,1676058430
443,les escoumins,48.1111,-69.0236,-425.91999999999996,96,100,8.5,CA,1676058430
444,sirsi,14.6167,74.85,-336.04599999999994,43,67,4.0,IN,1676058431
445,carutapera,-1.195,-46.02,-313.04200000000003,81,34,6.69,BR,1676058431
446,belaya gora,68.5333,146.4167,-561.082,100,55,1.23,RU,1676058432
447,port hueneme,34.1478,-119.1951,-320.71,16,0,13.8,US,1676058432
448,deputatskiy,69.3,139.9,-538.8340000000001,99,85,3.83,RU,1676058433
449,vanimo,-2.6741,141.3028,-321.304,92,100,7.38,PG,1676058433
450,kon tum,14.35,108.0,-344.27199999999993,96,26,1.95,VN,1676058434
451,changping,40.2186,116.2197,-402.718,75,94,1.03,CN,1676058435
452,luanda,-8.8368,13.2343,-314.59,76,0,12.66,AO,1676058316
453,puente alto,-33.6167,-70.5833,-288.76,18,0,11.5,CL,1676058383
454,shitanjing,39.2342,106.3439,-409.43199999999996,86,88,8.1,CN,1676058435
455,nantucket,41.2835,-70.0995,-349.97799999999995,58,0,20.71,US,1676058436
456,arman,59.7,150.1667,-458.9319999999999,95,100,8.86,RU,1676058438
457,catuday,16.2923,119.8062,-326.128,78,7,11.7,PH,1676058438
458,viedma,-40.8135,-62.9967,-294.592,24,0,11.05,AR,1676058439
459,alugan,12.2188,125.4808,-318.352,85,21,14.92,PH,1676058439
460,fare,-16.7,-151.0167,-312.61,72,7,14.32,PF,1676058440
461,nesna,66.1967,13.0213,-404.46399999999994,59,100,8.21,NO,1676058441
462,champerico,14.3,-91.9167,-287.6979999999999,63,1,12.64,GT,1676058442
463,maniitsoq,65.4167,-52.9,-464.638,96,99,9.8,GL,1676058442
464,lalmohan,22.3384,90.7419,-334.96599999999995,76,0,4.88,BD,1676058443
465,balabac,7.9868,117.0645,-316.29999999999995,82,100,14.18,PH,1676058443
466,beringovskiy,63.05,179.3167,-504.93999999999994,95,51,11.27,RU,1676058444
467,ayan,56.45,138.1667,-484.366,83,16,5.97,RU,1676058445
468,wawa,9.9022,4.4192,-303.05199999999996,17,2,3.06,NG,1676058236
469,barcelos,41.5388,-8.6151,-362.73999999999995,63,0,5.57,PT,1676058446
470,walvis bay,-22.9575,14.5053,-338.79999999999995,82,28,6.91,NA,1676058447
471,surt,31.2089,16.5887,-356.51199999999994,47,5,20.4,LY,1676058448
472,severo-yeniseyskiy,60.3725,93.0408,-478.7319999999999,98,100,4.07,RU,1676058449
473,dingle,10.9995,122.6711,-326.8299999999999,93,63,7.4,PH,1676058449
474,longonjo,-12.9067,15.2533,-336.46,70,96,0.6,AO,1676058450
475,ilhabela,-23.7781,-45.3581,-318.15399999999994,86,100,5.35,BR,1676058451
476,hami,42.8,93.45,-404.662,50,99,6.42,CN,1676058451
477,portlethen,57.0547,-2.1307,-366.178,73,100,9.22,GB,1676058452
478,sambava,-14.2667,50.1667,-323.30199999999996,89,100,6.98,MG,1676058453
479,maraa,-1.8333,-65.3667,-304.15,64,74,1.79,BR,1676058453
480,akyab,20.15,92.9,-338.76399999999995,73,0,9.46,MM,1676058454
481,jijiga,9.35,42.8,-350.554,36,0,8.23,ET,1676058454
482,nhulunbuy,-12.2333,136.7667,-313.492,89,100,10.36,AU,1676058455
483,sumkino,58.1108,68.3244,-452.6139999999999,96,81,7.85,RU,1676058456
484,capao da canoa,-29.7456,-50.0097,-317.02,77,0,8.21,BR,1676058456
485,taloqan,36.7361,69.5345,-411.628,97,100,0.81,AF,1676058457
486,palmer,42.1584,-72.3287,-354.28,42,40,25.32,US,1676058457
487,kisangani,0.5167,25.2,-319.054,40,43,1.81,CD,1676058458
488,yerbogachen,61.2767,108.0108,-504.29200000000003,100,94,4.23,RU,1676058459
489,mayo,38.8876,-76.5119,-350.32,42,0,8.05,US,1676058459
490,semnan,35.5729,53.3971,-400.936,52,10,1.74,IR,1676058460
491,lodja,-3.4833,23.4333,-323.89599999999996,68,14,1.57,CD,1676058460
492,tukrah,32.5341,20.5791,-364.198,74,100,12.06,LY,1676058461
493,pangoa,-12.1167,-73.0,-316.246,70,100,4.03,PE,1676058461
494,saint-ambroise,48.5501,-71.3324,-420.53799999999995,86,100,5.75,CA,1676058462
495,bad salzuflen,52.0862,8.7443,-385.78,78,41,13.2,DE,1676058462
496,doha,25.2867,51.5333,-350.26599999999996,63,0,18.41,QA,1676058463
497,petrivka,46.9695,30.9591,-410.656,50,4,7.09,UA,1676058463
498,srednekolymsk,67.45,153.6833,-551.848,100,65,2.66,RU,1676058464
499,mapimi,25.8167,-103.85,-361.174,30,0,11.39,MX,1676058209
500,sao joao evangelista,-18.5478,-42.7633,-320.99799999999993,75,4,6.29,BR,1676058465
501,kieta,-6.2167,155.6333,-315.976,82,97,4.61,PG,1676058465
502,camacha,33.0833,-16.3333,-354.51399999999995,77,40,18.41,PT,1676058466
503,kazanskoye,55.6448,69.235,-475.97799999999995,100,19,3.6,RU,1676058466
504,cotonou,6.3654,2.4183,-308.14599999999996,79,20,12.66,BJ,1676058467
505,poum,-20.2333,164.0167,-312.412,79,100,28.5,NC,1676058467
506,bilma,18.6853,12.9164,-330.98799999999994,19,10,13.42,NE,1676058468
507,ribas do rio pardo,-20.4431,-53.7592,-330.826,92,100,1.05,BR,1676058469
508,muriti,-1.9833,32.9167,-326.776,66,27,2.64,TZ,1676058469
509,abrau-dyurso,44.69,37.59,-419.24199999999996,85,100,2.26,RU,1676058470
510,nandigama,16.7833,80.3,-335.28999999999996,85,30,5.35,IN,1676058471
511,bokoro,12.3807,17.0568,-311.584,9,3,9.93,TD,1676058471
512,yamada,39.4667,141.95,-398.25399999999996,95,87,18.07,JP,1676058472
513,conde,-7.2597,-34.9075,-305.842,62,40,14.97,BR,1676058472
514,rapid valley,44.0625,-103.1463,-365.29599999999994,21,0,8.99,US,1676058473
515,shangzhi,45.2167,127.9667,-439.36600000000004,98,100,1.63,CN,1676058473
516,murmashi,68.8154,32.8115,-430.492,100,0,0.0,RU,1676058474
517,martapura,-3.4167,114.85,-325.11999999999995,95,100,0.38,ID,1676058474
518,griffith,41.5284,-87.4237,-383.998,48,0,13.8,US,1676058253
519,visby,57.6409,18.296,-391.95399999999995,65,75,19.57,SE,1676058475
520,koutsouras,35.0339,25.9469,-369.4719999999999,60,94,9.1,GR,1676058475
521,zonguldak,41.25,31.8333,-407.48799999999994,91,100,1.52,TR,1676058476
522,maneadero,31.7167,-116.5667,-335.28999999999996,33,68,5.01,MX,1676058476
523,pastavy,55.1168,26.8326,-411.14199999999994,88,14,12.86,BY,1676058281
524,marquard,-28.6645,27.4305,-353.46999999999997,93,100,2.8,ZA,1676058477
525,sampit,-2.5333,112.95,-325.282,97,100,0.29,ID,1676058477
526,kama,56.3051,54.0936,-428.06199999999995,97,96,7.38,RU,1676058478
527,salihorsk,52.7876,27.5415,-404.86,86,97,11.77,BY,1676058478
528,baghdad,33.3406,44.4009,-379.55199999999996,61,0,5.75,IQ,1676058441
529,kloulklubed,7.0419,134.2556,-323.40999999999997,77,100,14.52,PW,1676058236
530,rostovka,55.3842,71.8891,-467.77,99,42,6.71,RU,1676058479
531,yaguachi,-2.1167,-79.6833,-301.342,60,91,1.45,EC,1676058479
532,jaisalmer,26.9147,70.9181,-335.28999999999996,29,2,7.63,IN,1676058480
533,dori,14.0354,-0.0345,-309.928,7,0,9.73,BF,1676058480
534,udachnyy,66.4167,112.4,-519.1959999999999,100,91,4.94,RU,1676058481
535,minna,9.6139,6.5569,-302.152,29,0,5.75,NG,1676058481
